{
	"category": "Owner",
	"name": "Arian F Abrahamsson",
	"addresses": [{
		"id": 100,
		"address": {
			"line1": "Handslagarevägen",
			"line2": "47",
			"line3": "",
			"city": "MALMÖ",
			"country": "Sweden",
			"code": "211 76"
		},
		"latitude": "55.635160",
		"longitude": "13.481000",
		"totalarea": "64"
	}, {
		"id": 101,
		"address": {
			"line1": "Luddingsbo Mekanikusv",
			"line2": "24",
			"line3": "",
			"city": "STOCKHOLM",
			"country": "Sweden",
			"code": "109 03"
		},
		"latitude": "58.503100",
		"longitude": "16.148220",
		"totalarea": "84"
	}, {
		"id": 102,
		"address": {
			"line1": "Östra Förstadsgatan",
			"line2": "11",
			"line3": "",
			"city": "UPPSALA",
			"country": "Sweden",
			"code": "756 41"
		},
		"latitude": "55.370340",
		"longitude": "13.173830",
		"totalarea": "74"
	}, {
		"id": 103,
		"address": {
			"line1": "Luddingsbo Mekanikusv",
			"line2": "20",
			"line3": "",
			"city": "STOCKHOLM",
			"country": "Sweden",
			"code": "103 88"
		},
		"latitude": "58.502800",
		"longitude": "16.149080",
		"totalarea": "72"
	}, {
		"id": 104,
		"address": {
			"line1": "Nybyvägen",
			"line2": "34",
			"line3": "",
			"city": "VÄSTERÅS",
			"country": "Sweden",
			"code": "726 44"
		},
		"latitude": "60.239620",
		"longitude": "24.160890",
		"totalarea": "100"
	}]
}